City,Store name,Address,Latitude,Longitude,Radius_OptionA_cityUniform_km,Radius_OptionB_perStore_km,Radius_OptionC_countryUnified_km,OptionB_demand_reach_%,OptionB_cannibalization_%,OptionB_CPO_EUR
Kyiv,"ANRI-PHARM, Володимира Івасюка 6","м. Київ, вул. Володимира Івасюка 6",50.4946,30.52131,3.0,3.5,3.0,4.4,44.9,1.925
Kyiv,"ANRI-PHARM, Драгомирова 19-А, Липки-4 (Андрія Верхогляда)","м. Київ, Драгомирова 19-А, Липки-4 (Андрія Верхогляда)",50.407542,30.543602,3.0,1.9,3.0,2.7,83.8,1.67
Kyiv,"ANRI-PHARM, Оболонський пр-т, 35","м. Київ, Оболонський пр-т, 35",50.518061,30.497903,3.0,1.5,3.0,2.1,100.0,1.606
Kyiv,"ANRI-PHARM, Степана Рудницького 19/14","вул.Степана Рудницького 19/14, Київ",50.384328,30.455977,3.0,2.4,3.0,3.8,84.9,1.75
Kyiv,"ANRI-PHARM, Харківске шосе, 19 ТЦ ""Мегасіті""","м. Київ, Харківске шосе, 19 ТЦ ""Мегасіті""",50.431362,30.634247,3.0,2.2,3.0,4.3,72.7,1.718
Kyiv,"ANRI-PHARM, б-р Рильського Тадея, 5 прим.503-2","м.Київ, б-р Рильського Тадея, 5 прим.503-2",50.370575,30.445441,3.0,1.5,3.0,1.8,88.9,1.606
Kyiv,"ANRI-PHARM, вул Антоновича, 93","м. Київ, вул Антоновича, 93",50.42443,30.516069,3.0,1.4,3.0,1.6,100.0,1.59
Kyiv,"ANRI-PHARM, вул. Іоанна Павла, 20","м. Київ, вул. Іоанна Павла, 20",50.418196,30.540168,3.0,1.6,3.0,2.6,94.8,1.622
Kyiv,"ANRI-PHARM, вул. Артема,(Січових стрільців), 55","м. Київ, вул. Артема,(Січових стрільців), 55",50.455831,30.493752,3.0,1.6,3.0,2.5,93.5,1.622
Kyiv,"ANRI-PHARM, вул. Бажана, 1Е ТЦ ""Апетит""","м. Київ вул. Бажана, 1Е ТЦ  ""Апетит""",50.396347,30.614978,3.0,1.4,3.0,1.7,98.2,1.59
Kyiv,"ANRI-PHARM, вул. Басейна, 23/52, прим. 31,32","м. Київ, вул. Басейна, 23/52, прим. 31,32",50.439283,30.52541,3.0,1.7,3.0,2.9,61.9,1.638
Kyiv,"ANRI-PHARM, вул. Богданівська, 7-Д","м. Київ, вул. Богданівська, 7-Д",50.435924,30.478845,3.0,1.4,3.0,1.8,100.0,1.59
Kyiv,"ANRI-PHARM, вул. Гмирі, 18","м. Київ, вул. Гмирі, 18",50.39114,30.63112,3.0,1.5,3.0,1.3,100.0,1.606
Kyiv,"ANRI-PHARM, вул. Драгомирова 14а","м. Київ, вул. Драгомирова 14а",50.41259,30.54558,3.0,1.7,3.0,2.4,100.0,1.638
Kyiv,"ANRI-PHARM, вул. Закревського, 95В","м. Київ, вул. Закревського, 95В",50.52971,30.62375,3.0,3.0,3.0,5.6,0.0,1.845
Kyiv,"ANRI-PHARM, вул. Зарічна, 1Б","м. Київ, вул. Зарічна, 1Б",50.39585,30.59971,3.0,1.3,3.0,0.8,92.3,1.575
Kyiv,"ANRI-PHARM, вул. Золотоустівська, 50","м. Київ, вул. Золотоустівська, 50",50.45384,30.4865,3.0,1.5,3.0,2.2,99.3,1.606
Kyiv,"ANRI-PHARM, вул. Кудряшова(Мокра), 20, ЖК ""Пори року""","м. Київ, вул. Кудряшова(Мокра), 20, ЖК ""Пори року""",50.43005,30.48716,3.0,1.3,3.0,1.6,80.7,1.575
Kyiv,"ANRI-PHARM, вул. Максимовича Михайла,24-Б, прим. 71 н","м. Київ, вул. Максимовича Михайла,24-Б, прим. 71 н",50.393181,30.473762,3.0,1.7,3.0,2.5,77.1,1.638
Kyiv,"ANRI-PHARM, вул. Метрологічна, 14Б","м. Київ, вул. Метрологічна, 14Б",50.349912,30.47638,3.0,2.4,3.0,3.3,98.6,1.75
Kyiv,"ANRI-PHARM, вул. Метрологічна,19 (НОВУС)","м. Київ, вул. Метрологічна,19 (НОВУС)",50.349612,30.47717,3.0,2.4,3.0,3.2,99.5,1.75
Kyiv,"ANRI-PHARM, вул. Польова,73 Караваєві дачі","м. Київ, вул. Польова,73 Караваєві дачі",50.435602,30.445819,3.0,2.7,3.0,6.2,56.5,1.797
Kyiv,"ANRI-PHARM, вул. Регенераторна, 4 крп. 11, ЖК ""КомфортТаун"" КТ 2","м. Київ, вул. Регенераторна, 4 крп. 11",50.43526,30.61891,3.0,1.7,3.0,2.9,100.0,1.638
Kyiv,"ANRI-PHARM, вул. Руданського Степана,4-6 (Аптека Америка)","м. Київ, вул. Руданського Степана,4-6",50.469,30.43123,3.0,3.1,3.0,7.3,50.1,1.861
Kyiv,"ANRI-PHARM, вул. Тютюнника Василя (вул. Барбюса Анрі), 56","м. Київ, вул. Тютюнника Василя (вул. Барбюса Анрі), 56",50.41762,30.52751,3.0,1.5,3.0,2.1,100.0,1.606
Kyiv,"ANRI-PHARM, вул. Щербаківського, буд. 52","м. Київ, вул. Щербаківського, буд. 52",50.471161,30.407034,3.0,1.7,3.0,2.4,98.1,1.638
Kyiv,"ANRI-PHARM, вул.Андрія Верхогляда 14","вул.Андрія Верхогляда 14, Київ",50.41261,30.54556,3.0,1.7,3.0,2.4,100.0,1.638
Kyiv,"ANRI-PHARM, вул.Березнева 12, ""КТ-3""","м. Київ, вул.Березнева 12, ""КТ-3""",50.431333,30.620894,3.0,1.8,3.0,3.1,97.5,1.654
Kyiv,"ANRI-PHARM, вул.Богдана Хмельницького, 66","м. Київ, вул.Богдана Хмельницького, 66",50.4477,30.504309,3.0,1.5,3.0,2.3,98.0,1.606
Kyiv,"ANRI-PHARM, вул.Гмирі Бориса 14-А,прим 217","м.Київ, вул.Гмирі Бориса 14-А",50.39113,30.63107,3.0,1.5,3.0,1.3,100.0,1.606
Kyiv,"ANRI-PHARM, вул.Ернста, 16Б","м. Київ, вул.Ернста, 16Б",50.415801,30.461784,3.0,1.5,3.0,1.6,72.1,1.606
Kyiv,"ANRI-PHARM, вул.Золотоустівська 25, ЖК Шевченківський","м.Київ, вул.Золотоустівська 25, ЖК Шевченківський",50.4519,30.4868,3.0,1.5,3.0,2.1,100.0,1.606
Kyiv,"ANRI-PHARM, вул.О.Пчілки, 2а","м. Київ, вул.О.Пчілки, 2а",50.417045,30.624694,3.0,1.6,3.0,2.2,73.5,1.622
Kyiv,"ANRI-PHARM, вул.Панельна, 6 (Аболмасова Андрія)","Andriia Abolmasova St, 6, Kyiv, Ukraine, 02005",50.459374,30.585287,3.0,3.0,3.0,4.5,18.1,1.845
Kyiv,"ANRI-PHARM, вул.Сім'ї Кульженків, 37 (ЖК Яскравий)","м. Київ, вул.Сім'ї Кульженків, 37 (ЖК Яскравий)",50.522552,30.467198,3.0,3.2,3.0,5.9,33.8,1.877
Kyiv,"ANRI-PHARM, вул.Теремківська, буд. 4-А (ЖК Республіка)","м. Київ, вул.Теремківська, буд. 4-А (ЖК Республіка)",50.371896,30.449707,3.0,1.6,3.0,1.9,100.0,1.622
Kyiv,"ANRI-PHARM, м. Ірпінь, вул. Університетська, 2ф/2, ЖК Карат","м. Ірпінь, вул. Університетська, 2ф/2, ЖК Карат",50.50589,30.23448,3.0,3.0,3.0,5.4,0.0,1.845
Kyiv,"ANRI-PHARM, м. Бровари, вул. Чорновола, 6А","Viacheslava Chornovola St, 6А, Brovary, Kyivs'ka oblast, 07400",50.51788,30.78106,3.0,3.0,3.0,2.4,0.0,1.845
Kyiv,"ANRI-PHARM, м. Вишгород,Кургузова,1-А,корп.3 (Вышгород-1)","м. Вишгород,Кургузова,1-А,корп.3 (Вышгород-1)",50.58354,30.47361,3.0,3.0,3.0,2.8,0.0,1.845
Kyiv,"ANRI-PHARM, провулок Ясинуватський, буд. 10","м. Київ, провулок Ясинуватський, буд. 10",50.410111,30.507309,3.0,1.6,3.0,2.2,35.6,1.622
Kyiv,"ANRI-PHARM, проспект Палладіна Академіка, буд. 22","м. Київ, проспект Палладіна Академіка, буд. 22",50.461461,30.357163,3.0,2.3,3.0,4.0,47.8,1.734
Kyiv,"ANRI-PHARM, с. Крюківщина, вул. Жулянська, 2а, ЖК""Євромісто""","с. Крюківщина, вул.  Жулянська, 2а, ЖК""Євромісто""",50.3764,30.37837,3.0,2.5,3.0,5.6,94.3,1.766
Kyiv,"ANRI-PHARM, с. Крюківщина, вул. Одеська, 22","с. Крюківщина, вул. Одеська, 22",50.37045,30.38184,3.0,2.2,3.0,4.6,96.1,1.718
Kyiv,"ANRI-PHARM, с. Петропавлівська Борщагівка, ЖК ""Щасливий"", вул. Соборна, 10 А","с. Петропавлівська Борщагівка, ЖК ""Щасливий"", вул. Соборна, 10 А",50.43698,30.34921,3.0,3.0,3.0,8.2,42.6,1.845
Kyiv,"ANRI-PHARM, с. Софіївська Борщагівка, вул. Івана Франка, 6","Софіївська Борщагівка, вул. Івана Франка, 6",50.4001,30.37336,3.0,1.9,3.0,3.4,100.0,1.67
Kyiv,"ANRI-PHARM, с. Софіївська Борщагівка, вул. Сагайдачного, 20а, ТЦ""Львівський маєток""","с. Софіївська Борщагівка, вул. Сагайдачного, 20а, ТЦ""Львівський маєток""",50.40423,30.335343,3.0,2.0,3.0,2.8,100.0,1.686
Kyiv,"ANRI-PHARM, с. Софіївська Борщагівка, вул.Щаслива,19/6","с. Софіївська Борщагівка, вул.Щаслива,19/6 з 01.08. будинок №20 під'їзд 16",50.401279,30.385581,3.0,2.1,3.0,4.2,78.5,1.702
Kyiv,"ANRI-PHARM, с. Софіївська Борщагівка, пр-т Героїв Небесної Сотні, 24/83","с. Софіївська Борщагівка, пр-т Героїв Небесної Сотні, 24/83",50.401379,30.335505,3.0,2.0,3.0,2.6,93.8,1.686
Kyiv,"ANRI-PHARM, с. Софіївська Борщагівка,вул.Соборна, 118-А","с. Софіївська Борщагівка,вул.Соборна, 118-А",50.40892,30.33704,3.0,1.9,3.0,3.0,100.0,1.67
Lviv,"ANRI-PHARM, Кульпарківська, 230А корп3, прим 1б (ЖК ФАМІЛІЯ)","м. Кульпарківська, 230А корп3",49.80368,23.97937,3.0,3.0,3.0,100.0,0.0,1.395
